time,timestamp,recordtime,lat,long,alt,speed,course,verticalAccuracy,horizontalAccuracy,locTimeStamp,accelerationX,accelerationY,accelerationZ,HeadingX,HeadingY,HeadingZ,TrueHeading,MagneticHeading,HeadingAccuracy,RotationX,RotationY,RotationZ,motionYaw,motionRoll,motionPitch,motionRotationRateX,motionRotationRateY,motionRotationRateZ,motionUserAccelerationX,motionUserAccelerationY,motionUserAccelerationZ,DeviceOrientation,Event
2013-11-05 23:45:14.708,1,0.1,40.6895,-73.95139,13.88397,8.67,171.4341,12,10,1383713114,0.2021027,-0.05181885,-1.233353,18.33833,-45.56351,-16.57735,188.6053,201.6666,15,-0.0392763,0.5422217,-0.1607548,-0.04149062,0.1045244,0.3184647,-0.3340953,0.5533186,-0.2901002,0.01663467,0.2562546,0.006301543,5,0
2013-11-05 23:45:14.808,2,0.2,40.6895,-73.95139,13.88397,8.67,171.4341,12,10,1383713114,0.2288361,-0.343277,-1.080017,18.61773,-46.32922,-15.69675,188.8893,201.9506,15,0.02581242,0.3441726,-0.02730486,-0.04874376,0.1065529,0.3424002,-0.3361767,0.3663934,-0.1776044,-0.05542381,-0.1639917,0.08051498,5,0
2013-11-05 23:45:14.908,3,0.3,40.6895,-73.95139,13.88397,8.67,171.4341,12,10,1383713114,0.101059,-0.1951904,-0.8648987,18.23356,-47.06018,-14.51133,188.2381,201.2993,15,-0.7988977,0.4867883,-0.4017943,-0.05249099,0.1051189,0.3443611,-0.714588,0.1723914,-0.3398565,-0.0315657,0.191645,0.255462,5,0
2013-11-05 23:45:15.008,4,0.4,40.6895,-73.95139,13.88397,8.67,171.4341,12,10,1383713114,0.05718994,-0.190094,-0.6747131,18.26849,-46.32925,-14.88389,188.4762,201.5375,15,0.5365436,-0.6514614,0.2316159,-0.04907032,0.0917493,0.3584698,0.8429874,-0.8263079,0.3794086,0.1227604,0.2270471,-0.1922597,5,0
2013-11-05 23:45:15.109,5,0.5,40.6895,-73.95139,13.88397,8.67,171.4341,12,10,1383713114,0.3404083,-0.03697205,-1.430664,18.12878,-46.19,-14.34198,188.7758,201.837,15,1.582324,-0.6245291,0.5526342,-0.06936534,0.09238522,0.3205927,1.168971,-0.3850665,0.3819044,0.2619949,0.2234848,-0.541769,5,0
2013-11-05 23:45:15.208,6,0.6,40.6895,-73.95139,13.88397,8.67,171.4341,12,10,1383713114,0.06822205,0.01954651,-0.9866791,18.86218,-46.64243,-14.37587,190.8036,203.8649,15,-0.671605,0.5446596,-0.1823536,-0.06277645,0.0377201,0.340148,-0.977614,0.2968423,-0.2673139,-0.1020941,0.1332482,0.2643614,5,0
2013-11-05 23:45:15.308,7,0.7,40.6895,-73.95139,13.88397,8.67,171.4341,12,10,1383713114,0.08625793,-0.1704407,-0.769043,18.86218,-47.75629,-14.64681,190.0254,203.0866,15,-0.17686,-0.09053177,-0.1284261,-0.0592472,0.03838392,0.3715541,0.2045059,-0.3235163,0.02428689,0.1062118,0.205578,0.01590152,5,0
2013-11-05 23:45:15.408,8,0.8,40.6895,-73.95139,13.88397,8.67,171.4341,12,10,1383713114,0.1198425,-0.1725769,-1.314209,17.50015,-47.99994,-13.52913,188.8258,201.887,15,0.7281737,-0.2089316,0.1972444,-0.06629768,0.05166792,0.3603534,0.592869,-0.1480085,0.1927826,0.08445408,0.17867,-0.4064494,5,0
2013-11-05 23:45:15.509,9,0.9,40.68943,-73.95138,13.08902,8.18,171.4341,12,10,1383713115,0.1145477,-0.1512451,-1.205704,16.38257,-48.55685,-12.98724,187.7112,200.7724,15,0.4020505,-0.09329293,0.2215356,-0.06732441,0.04150004,0.3671045,0.1478141,-0.1460378,0.159396,0.05777278,0.1706972,-0.07532193,5,0
2013-11-05 23:45:15.608,10,1,40.68943,-73.95138,13.08902,8.18,171.4341,12,10,1383713115,0.1689758,-0.1743622,-0.9964294,16.97627,-48.45242,-13.15658,188.5216,201.5829,15,-0.3917875,0.453861,-0.1978747,-0.08113129,0.0473266,0.360839,-0.6090626,0.3475161,-0.3232907,0.05940593,0.1670547,0.07789442,5,0
2013-11-05 23:45:15.708,11,1.1,40.68943,-73.95138,13.08902,8.18,171.4341,12,10,1383713115,0.1221313,-0.1929779,-1.11937,19.17649,-49.11374,-14.47748,188.8398,201.901,15,0.01651186,0.06884325,-0.04005687,-0.08324387,0.06140036,0.3527647,-0.120737,0.008570488,-0.07388635,0.01388897,0.1392253,-0.1974568,5,0
2013-11-05 23:45:15.808,12,1.2,40.68943,-73.95138,13.08902,8.18,171.4341,12,10,1383713115,0.07009888,-0.0905304,-1.061096,18.93202,-48.66122,-15.79836,188.8837,201.9449,15,-0.03555906,0.2322375,0.01552197,-0.08359694,0.06381734,0.3192356,-0.1954316,0.1486567,-0.01072734,-0.06664015,0.1888256,-0.02686819,5,0
2013-11-05 23:45:15.908,13,1.3,40.68943,-73.95138,13.08902,8.18,171.4341,12,10,1383713115,0.0004425049,-0.1304474,-0.6790466,19.17648,-48.20871,-16.03545,189.2361,202.2973,15,-0.3330475,0.3550399,-0.1890408,-0.07719904,0.04752541,0.3091928,-0.3500078,0.1604131,-0.1557323,-0.03413104,0.165206,0.2858545,5,0
2013-11-05 23:45:16.008,14,1.4,40.68943,-73.95138,13.08902,8.18,171.4341,12,10,1383713115,0.005126953,-0.1310883,-0.7948608,18.12874,-45.84189,-15.08712,189.1586,202.2199,15,-0.2331534,0.2388805,-0.17531,-0.07599449,0.05109447,0.2988379,-0.03162623,0.04437433,-0.04948053,-0.03104746,0.1724463,0.09647614,5,0
2013-11-05 23:45:16.108,15,1.5,40.68943,-73.95138,13.08902,8.18,171.4341,12,10,1383713115,0.09777832,-0.2833557,-1.134521,17.22072,-46.46844,-13.12272,187.4723,200.5335,15,0.4492835,-0.1778542,0.1371243,-0.08445045,0.07270867,0.2907978,0.3874519,-0.2306781,0.1265879,0.0557868,0.01680394,-0.284567,5,0
2013-11-05 23:45:16.208,16,1.6,40.68943,-73.95138,13.08902,8.18,171.4341,12,10,1383713115,0.05723572,-0.1470947,-0.9267578,17.74458,-46.99054,-13.563,188.1829,201.2442,15,-0.6779223,0.3948064,-0.263895,-0.08531072,0.06646062,0.2909374,-0.7086707,0.2544394,-0.2481414,-0.02202532,0.1175388,0.2814678,5,0
2013-11-05 23:45:16.308,17,1.7,40.68943,-73.95138,13.08902,8.18,171.4341,12,10,1383713115,0.1108704,-0.05218506,-1.081696,18.58276,-46.92087,-14.4436,188.1576,201.2188,15,0.3993474,-0.272671,0.1574823,-0.08839794,0.08928192,0.2745828,0.3669814,-0.2993858,0.1865468,0.08469383,0.2208982,-0.309316,5,0
2013-11-05 23:45:16.409,18,1.8,40.68943,-73.95138,13.08902,8.18,171.4341,12,10,1383713115,0.1727448,-0.1017761,-1.079773,17.9192,-45.63303,-14.07104,188.3299,201.3912,15,-0.3098428,0.3392513,-0.1393382,-0.09016648,0.08349944,0.267616,-0.402742,0.2691648,-0.1584217,0.08390351,0.1311933,0.1118924,5,0
2013-11-05 23:45:16.508,19,1.9,40.68937,-73.95137,16.78375,6.48,171.4341,12,10,1383713116,0.1915436,-0.110321,-1.060257,18.09383,-45.25015,-15.59515,188.1661,201.2274,15,0.2066475,0.02202381,0.0390462,-0.09348121,0.09144393,0.2629092,0.2109357,-0.03958278,0.02458736,0.1042041,0.1343111,-0.2218835,5,0
2013-11-05 23:45:16.608,20,2,40.68937,-73.95137,16.78375,6.48,171.4341,12,10,1383713116,-0.05496216,-0.1660614,-0.7313995,19.63049,-46.57285,-15.8661,189.5409,202.6021,15,-0.3533392,0.2640322,-0.141441,-0.08684651,0.06892564,0.2636047,-0.3244104,0.06811452,-0.1070063,-0.0978031,0.08035615,0.2406914,5,0
2013-11-05 23:45:16.708,21,2.1,40.68937,-73.95137,16.78375,6.48,171.4341,12,10,1383713116,0.06427002,-0.1075439,-0.964798,20.25912,-45.8071,-14.85001,190.5342,203.5954,15,0.1145362,0.1429271,-0.003317233,-0.08894411,0.07181004,0.2314139,0.07869862,0.03329907,-0.01249263,-0.02065668,0.2046805,-0.004781893,5,0
2013-11-05 23:45:16.808,22,2.2,40.68937,-73.95137,16.78375,6.48,171.4341,12,10,1383713116,0.1109314,-0.3056641,-1.010025,20.04958,-46.64249,-14.44357,190.1785,203.2397,15,0.01095518,0.2657387,-0.1401291,-0.09147029,0.0686015,0.235886,0.02997232,0.08324737,-0.1368203,0.006653762,-0.04270846,-0.05120433,5,0
2013-11-05 23:45:16.908,23,2.3,40.68937,-73.95137,16.78375,6.48,171.4341,12,10,1383713116,0.1413116,-0.3450928,-0.7723694,20.43375,-46.32922,-14.00327,190.7677,203.829,15,-0.1797666,0.1143876,-0.1278381,-0.09655071,0.06524266,0.2600621,-0.07238805,-0.07307278,-0.1011733,0.0748133,-0.06382807,0.1443259,5,0
2013-11-05 23:45:17.008,24,2.4,40.68937,-73.95137,16.78375,6.48,171.4341,12,10,1383713116,-0.03004456,-0.2777863,-1.001404,20.64329,-46.74692,-13.39364,190.7882,203.8494,15,-0.1962278,0.2373486,-0.01132829,-0.09709229,0.0664253,0.2454517,-0.07045022,-0.03133834,0.0602949,-0.01191203,-0.0190599,-0.07349343,5,0
2013-11-05 23:45:17.109,25,2.5,40.68937,-73.95137,16.78375,6.48,171.4341,12,10,1383713116,0.100296,-0.1858521,-1.059937,20.6782,-46.50327,-13.42751,190.7563,203.8175,15,0.5847585,-0.3196342,0.2117381,-0.09035328,0.0665349,0.2373637,0.594816,-0.5192409,0.2424828,0.06968622,0.0271332,-0.3271101,5,0
2013-11-05 23:45:17.208,26,2.6,40.68937,-73.95137,16.78375,6.48,171.4341,12,10,1383713116,0.1400604,-0.3356323,-1.196823,20.53851,-46.7121,-13.96942,190.866,203.9272,15,-0.03482749,0.2719897,0.05641454,-0.09050253,0.070131,0.2255749,-0.1396386,0.2995468,0.0532262,0.1139375,-0.1107754,-0.1209309,5,0
2013-11-05 23:45:17.308,27,2.7,40.68937,-73.95137,16.78375,6.48,171.4341,12,10,1383713116,0.1280975,-0.1385956,-0.8853455,20.71311,-45.70273,-16.1032,190.9321,203.9933,15,0.04699867,-0.267931,0.2045939,-0.08004004,0.06464019,0.2183868,-0.02903896,-0.2823742,0.2039384,0.08572751,0.09942178,0.04836709,5,0
2013-11-05 23:45:17.408,28,2.8,40.68937,-73.95137,16.78375,6.48,171.4341,12,10,1383713116,0.07073975,-0.2915649,-1.210678,20.64326,-46.39886,-16.50964,191.0641,204.1253,15,-0.177244,-0.251621,0.1704524,-0.06645447,0.03049395,0.2203394,-0.1589747,-0.4885897,0.1453566,0.04092661,-0.08783564,-0.01658896,5,0
2013-11-05 23:45:17.509,29,2.9,40.68933,-73.95136,15.71451,5.8,171.4341,12,10,1383713117,0.05508423,-0.2596893,-0.9716492,19.90985,-45.73752,-16.47577,191.2959,204.3571,15,0.0003118562,0.5504515,-0.01421729,-0.04943645,0.05310186,0.2274639,0.06179646,0.08976387,-0.0722914,0.02923816,0.017164,-0.05473498,5,0
2013-11-05 23:45:17.608,30,3,40.68933,-73.95136,15.71451,5.8,171.4341,12,10,1383713117,0.06410217,-0.1793365,-0.909668,19.4209,-45.31979,-17.76281,189.6791,202.7403,15,-0.1811711,0.04029309,-0.3327124,-0.05650215,0.1038006,0.2094356,-0.1935949,0.2706285,-0.2560424,-0.02336252,0.0001136431,0.02024687,5,0
2013-11-05 23:45:17.708,31,3.1,40.68933,-73.95136,15.71451,5.8,171.4341,12,10,1383713117,0.2153168,-0.225235,-1.045654,20.81785,-46.0159,-18.91438,190.3774,203.4387,15,0.259488,0.4815616,-0.08692797,-0.09295297,0.1246717,0.1800914,0.1620691,0.2927272,-0.1477959,0.1627267,-0.1391178,-0.2285663,5,0
2013-11-05 23:45:17.808,32,3.2,40.68933,-73.95136,15.71451,5.8,171.4341,12,10,1383713117,-0.01449585,-0.309494,-0.9855042,21.30679,-47.54739,-19.59174,189.6498,202.711,15,-0.235082,-0.3064223,-0.1275393,-0.1026073,0.1452086,0.1850416,-0.2044144,-0.3719831,-0.171814,-0.1130386,-0.1338837,0.07379556,5,0
2013-11-05 23:45:17.909,33,3.3,40.68933,-73.95136,15.71451,5.8,171.4341,12,10,1383713117,0.1231232,-0.2316895,-0.8905029,21.48141,-47.37341,-20.57395,190.3488,203.4101,15,0.0515114,0.274128,0.03251081,-0.1015159,0.1342714,0.1685172,0.08719066,0.08154909,0.009765314,-0.0707537,0.01163859,-0.05419726,5,0
2013-11-05 23:45:18.008,34,3.4,40.68933,-73.95136,15.71451,5.8,171.4341,12,10,1383713117,0.3777161,-0.1876678,-1.277252,21.30678,-47.75632,-21.55618,188.9672,202.0285,15,-0.008278436,0.03130013,0.0682981,-0.1052553,0.1597577,0.1297087,-0.3605199,0.05649273,-0.003634763,0.07065089,-0.1613652,-0.09802341,5,0
2013-11-05 23:45:18.108,35,3.5,40.68933,-73.95136,15.71451,5.8,171.4341,12,10,1383713117,0.1912537,-0.2153168,-0.9944611,22.04019,-47.79111,-22.19968,188.7945,201.8557,15,-0.3621652,-0.08997144,-0.3006307,-0.1090533,0.1833269,0.1321323,-0.4156733,0.06199497,-0.3304231,-0.06132789,-0.08182909,0.2389084,5,0
2013-11-05 23:45:18.208,36,3.6,40.68933,-73.95136,15.71451,5.8,171.4341,12,10,1383713117,0.2314148,-0.1757965,-0.8793793,22.4942,-47.89548,-22.43676,190.0182,203.0794,15,0.1458848,-0.3185756,-0.1660167,-0.1166455,0.1312746,0.1479086,0.2530288,-0.4848865,-0.1095156,0.06181556,-0.01985113,0.1160388,5,0
2013-11-05 23:45:18.308,37,3.7,40.68933,-73.95136,15.71451,5.8,171.4341,12,10,1383713117,0.05259705,-0.3664398,-1.02832,22.21482,-48.66125,-21.08199,190.6926,203.7539,15,0.750479,-0.9138552,-0.008146876,-0.1241318,0.06541998,0.1642129,0.6897738,-1.067816,-0.008332124,0.02650954,-0.177909,-0.2834463,5,0
2013-11-05 23:45:18.409,38,3.8,40.68933,-73.95136,15.71451,5.8,171.4341,12,10,1383713117,-0.1006622,-0.2241516,-0.8062439,20.60831,-49.00934,-19.32081,191.3595,204.4208,15,-0.2706073,-0.08190525,0.2360884,-0.1164387,0.01554863,0.1810432,-0.3378405,-0.175266,0.2518885,-0.09418183,-0.01856784,0.2319811,5,0
2013-11-05 23:45:18.509,39,3.9,40.68926,-73.95135,16.8089,5.19,171.4341,12,10,1383713118,0.01338196,-0.2238312,-0.9574127,20.0146,-49.04413,-19.35468,191.5352,204.5964,15,-0.167704,0.218172,-0.108323,-0.1282405,-0.002295828,0.1722912,-0.1985578,0.100475,-0.2230912,-0.05186109,-0.08489229,0.01985992,5,0
2013-11-05 23:45:18.608,40,4,40.68926,-73.95135,16.8089,5.19,171.4341,12,10,1383713118,0.06326294,-0.2967529,-0.8591461,21.16707,-49.35739,-19.38856,192.2212,205.2825,15,0.02281583,0.3035711,-0.2061766,-0.1279542,0.002466666,0.1760162,0.221691,0.06395219,-0.1969721,0.04554508,-0.1178142,-0.03188761,5,0
2013-11-05 23:45:18.709,41,4.1,40.68926,-73.95135,16.8089,5.19,171.4341,12,10,1383713118,0.07191467,-0.3111877,-1.231796,20.7829,-49.87952,-19.49017,191.0959,204.1571,15,-0.2284571,0.2465325,-0.7322793,-0.1433754,0.04000581,0.1415619,-0.3088103,0.2923685,-0.562682,0.01880033,-0.1675194,-0.1843945,5,0
2013-11-05 23:45:18.809,42,4.2,40.68926,-73.95135,16.8089,5.19,171.4341,12,10,1383713118,0.3975677,-0.1073303,-0.9298248,21.83063,-49.1138,-20.23527,191.9947,205.0559,15,0.09524476,0.232797,0.1506034,-0.1902069,0.06102809,0.1431654,0.194425,0.1104348,0.1299685,0.417005,0.03032636,-0.07233022,5,0
2013-11-05 23:45:18.909,43,4.3,40.68926,-73.95135,16.8089,5.19,171.4341,12,10,1383713118,-0.08177185,-0.1384735,-0.9561462,22.59897,-48.62653,-19.62562,192.6264,205.6877,15,0.02979225,0.06753563,0.3514957,-0.1606321,0.06694627,0.1393011,-0.1740695,0.08825192,0.4084443,-0.09522471,0.01308809,0.1029936,5,0
2013-11-05 23:45:19.011,44,4.4,40.68926,-73.95135,16.8089,5.19,171.4341,12,10,1383713118,-0.1721649,-0.1763153,-0.9960938,20.99247,-47.93039,-19.76112,191.8569,204.9182,15,-0.2002535,-0.1582677,0.08817593,-0.1397427,0.0463051,0.1412089,-0.2524124,-0.2887204,0.104104,-0.1788234,-0.03150116,0.06799537,5,0
2013-11-05 23:45:19.109,45,4.5,40.68926,-73.95135,16.8089,5.19,171.4341,12,10,1383713118,0.1466522,-0.1898804,-0.861145,20.71307,-47.99997,-20.37075,192.1994,205.2607,15,0.6624081,-0.002067945,-0.1077861,-0.148544,0.0226942,0.1758567,0.7055104,-0.11078,-0.1369876,0.08150905,-0.03079786,0.02605628,5,0
2013-11-05 23:45:19.212,46,4.6,40.68926,-73.95135,16.8089,5.19,171.4341,12,10,1383713118,0.1613312,-0.1497955,-0.5784302,23.12282,-48.24362,-19.32081,194.7915,207.8527,15,-0.4268259,-0.0286138,0.0176232,-0.1551024,0.02011716,0.1961529,-0.2451212,-0.1043923,-0.02829079,0.1636653,0.04861148,0.3848915,5,0
2013-11-05 23:45:19.320,47,4.7,40.68926,-73.95135,16.8089,5.19,171.4341,12,10,1383713118,0.1669312,-0.2261047,-1.45726,23.19266,-47.40829,-19.32081,194.8337,207.895,15,0.02080621,0.4014215,-0.1530322,-0.1497889,0.03104361,0.1355597,-0.06937345,0.4316857,-0.1113975,0.09534477,-0.0831016,-0.4564594,5,0
2013-11-05 23:45:19.416,48,4.8,40.68926,-73.95135,16.8089,5.19,171.4341,12,10,1383713118,0.0453186,-0.1497192,-0.8763733,22.49417,-47.19943,-19.99821,194.1898,207.2511,15,0.2049388,0.5650163,0.2150609,-0.1513923,0.0396225,0.1499922,0.344825,0.2258459,0.2782886,0.1378346,0.01316948,-0.1432294,5,0
2013-11-05 23:45:19.511,49,4.9,40.68921,-73.95134,16.4476,5.53,171.4341,12,10,1383713119,-0.03926086,-0.1000214,-0.7255249,22.28462,-46.57294,-20.06594,194.017,207.0782,15,-0.2558709,-0.1577334,0.1554825,-0.1424156,0.05295834,0.1591671,0.1899277,0.09609905,0.2033744,-0.06199959,0.01397992,0.1830732,5,0
2013-11-05 23:45:19.624,50,5,40.68921,-73.95134,16.4476,5.53,171.4341,12,10,1383713119,0.05735779,-0.1590271,-1.069534,22.59893,-47.02545,-20.77721,194.0792,207.1405,15,0.9290888,-0.1407526,-0.285962,-0.1473263,0.04847312,0.1401602,0.7539275,-0.05617765,-0.4742131,-0.1112724,-0.05901347,-0.1979506,5,0
2013-11-05 23:45:19.710,51,5.1,40.68921,-73.95134,16.4476,5.53,171.4341,12,10,1383713119,0.05557251,-0.2471161,-0.8691864,23.71649,-47.93042,-19.82885,195.2134,208.2746,15,-0.8456042,0.3783955,0.01889033,-0.1694006,0.05356077,0.1750175,-0.7204607,0.1333265,-0.0709953,0.01374995,-0.04911068,0.343724,5,0
2013-11-05 23:45:19.808,52,5.2,40.68921,-73.95134,16.4476,5.53,171.4341,12,10,1383713119,0.2729492,-0.1683502,-1.123291,23.85619,-48.48734,-20.16753,194.5454,207.6067,15,0.6610099,-0.001257012,0.02274606,-0.1769421,0.05130951,0.1596541,0.6990688,-0.2031273,-0.09807856,0.1737763,-0.01608741,-0.271509,5,0
2013-11-05 23:45:19.921,53,5.3,40.68921,-73.95134,16.4476,5.53,171.4341,12,10,1383713119,-0.02238464,-0.3189545,-0.7359467,24.51975,-48.87024,-20.26917,195.4688,208.53,15,-0.758851,0.1109907,0.1226601,-0.1596283,0.03443597,0.1647404,-0.7708172,-0.09984565,0.1313122,0.003268414,-0.1394248,0.3453274,5,0
2013-11-05 23:45:20.009,54,5.4,40.68921,-73.95134,16.4476,5.53,171.4341,12,10,1383713119,0.3422241,-0.1455994,-0.7792511,24.83408,-48.97464,-20.43851,195.4282,208.4894,15,-0.2743178,-0.5577543,-0.2621014,-0.1714893,0.03742081,0.1541379,-0.2299541,-0.4284814,-0.3318081,0.1952855,-0.04433243,0.1751051,5,0
2013-11-05 23:45:20.111,55,5.5,40.68921,-73.95134,16.4476,5.53,171.4341,12,10,1383713119,-0.08305359,-0.2209625,-1.398956,22.63387,-48.10443,-21.21749,194.165,207.2262,15,-0.4025427,0.2359987,0.4977848,-0.1537082,0.003681566,0.1061091,-0.651428,0.03003968,0.6116052,0.2169965,-0.0630047,-0.2883306,5,0
2013-11-05 23:45:20.224,56,5.6,40.68921,-73.95134,16.4476,5.53,171.4341,12,10,1383713119,0.001083374,-0.2224121,-0.786026,20.95751,-47.33865,-22.84321,193.1369,206.1982,15,-0.02459882,0.2200397,0.04287556,-0.1372541,-0.00311298,0.1287878,0.05317346,0.02759804,0.05863856,0.004353674,-0.0897381,0.1862936,5,0
2013-11-05 23:45:20.309,57,5.7,40.68921,-73.95134,16.4476,5.53,171.4341,12,10,1383713119,0.06690979,-0.2702637,-0.8358765,22.07507,-48.17404,-21.48844,193.8852,206.9465,15,0.2191774,0.2550006,-0.008988967,-0.1420842,0.006417904,0.1495465,0.1760172,0.1996023,-0.02061762,0.03717184,-0.1323366,0.1038697,5,0
2013-11-05 23:45:20.414,58,5.8,40.68921,-73.95134,16.4476,5.53,171.4341,12,10,1383713119,0.05717468,-0.2920685,-0.6366577,22.17986,-47.99997,-21.38683,194.2763,207.3375,15,0.02220464,0.2060078,-0.01441383,-0.1402094,0.0118811,0.1711036,0.2728969,0.1454004,0.03021617,0.06603619,-0.1318541,0.2305824,5,0
2013-11-05 23:45:20.517,59,5.9,40.68915,-73.95132,15.57321,5.8,171.4341,12,10,1383713120,0.1054535,-0.4415741,-1.003311,22.31956,-48.48727,-21.52232,193.889,206.9503,15,-0.1145007,0.2854102,-0.195732,-0.1393131,0.02517869,0.162289,0.002834403,0.18997,-0.04116439,0.08503333,-0.2432381,-0.0203345,5,0
2013-11-05 23:45:20.609,60,6,40.68915,-73.95132,15.57321,5.8,171.4341,12,10,1383713120,0.2974243,-0.262558,-1.369659,23.15775,-47.99997,-21.59005,194.0039,207.0651,15,0.2260291,-0.2635251,0.3792887,-0.1516613,0.05944527,0.1772497,0.221917,-0.2857085,0.3500236,0.3879164,-0.03192892,-0.415264,5,0
2013-11-05 23:45:20.712,61,6.1,40.68915,-73.95132,15.57321,5.8,171.4341,12,10,1383713120,-0.1317291,-0.3586884,-0.9064178,21.97031,-47.02542,-21.11588,194.3089,207.3702,15,-0.1002869,-0.08417134,0.5264454,-0.1193154,0.02384721,0.2004783,0.06036184,-0.2436381,0.5157905,-0.1176667,-0.146626,0.01487956,5,0
2013-11-05 23:45:20.815,62,6.2,40.68915,-73.95132,15.57321,5.8,171.4341,12,10,1383713120,0.01901245,-0.2420044,-0.9546356,20.95753,-47.06024,-22.03036,194.1921,207.2534,15,0.4447314,-0.1763529,-0.02074549,-0.108885,0.005149255,0.1940395,0.4494834,-0.2726396,-0.04850923,-0.1645832,-0.06723138,-0.1404838,5,0
2013-11-05 23:45:20.911,63,6.3,40.68915,-73.95132,15.57321,5.8,171.4341,12,10,1383713120,0.1966095,-0.2802277,-1.21077,20.71307,-46.81656,-21.99648,194.7076,207.7688,15,0.3774016,0.2126667,-0.2132353,-0.1174803,0.013354,0.1715645,-0.1057046,0.4165336,-0.1770066,0.1018479,-0.1165989,-0.06365814,5,0
2013-11-05 23:45:21.009,64,6.4,40.68915,-73.95132,15.57321,5.8,171.4341,12,10,1383713120,0.2610016,-0.2519836,-0.7337799,22.59895,-47.86078,-21.38685,195.8078,208.8691,15,0.244034,0.009127718,0.1620395,-0.125864,0.01588093,0.196568,0.4268699,-0.1731378,0.06436679,0.3055468,-0.07538631,0.09599067,5,0
2013-11-05 23:45:21.123,65,6.5,40.68915,-73.95132,15.57321,5.8,171.4341,12,10,1383713120,0.1264801,-0.2404785,-1.038361,21.27185,-47.23425,-21.59007,195.0937,208.155,15,0.1417276,0.04140124,0.1560474,-0.1125783,0.02312354,0.1883546,-0.05726358,0.07749006,-0.09401526,-0.1937636,-0.04510275,0.0403854,5,0
2013-11-05 23:45:21.209,66,6.6,40.68915,-73.95132,15.57321,5.8,171.4341,12,10,1383713120,0.09109497,-0.141861,-1.107864,20.92262,-47.72153,-22.47066,194.4816,207.5429,15,0.2808516,0.2328767,-0.1719672,-0.1167963,0.03300581,0.1674306,-0.389167,0.5354398,-0.4089513,-0.07909293,-0.1920084,0.08414251,5,0
2013-11-05 23:45:21.309,67,6.7,40.68915,-73.95132,15.57321,5.8,171.4341,12,10,1383713120,0.05975342,-0.2416687,-1.065918,22.17989,-47.65195,-22.13197,195.2462,208.3074,15,-0.60044,0.694602,0.1351773,-0.1191499,0.03577111,0.1629261,-0.7200771,0.5478208,0.08186974,0.02823248,-0.1309609,0.1811177,5,0
2013-11-05 23:45:21.414,68,6.8,40.68915,-73.95132,15.57321,5.8,171.4341,12,10,1383713120,-0.01422119,-0.3104553,-0.8145142,22.11004,-47.37347,-22.47068,195.1264,208.1876,15,0.3591587,-0.1634188,0.04537387,-0.1106239,0.02766192,0.1863644,0.5547196,-0.419103,0.05480846,-0.02139638,-0.1350555,0.05487921,5,0
2013-11-05 23:45:21.523,69,6.9,40.68913,-73.95132,17.21213,6.3,171.4341,12,10,1383713121,0.06793213,-0.2237396,-1.171555,22.14497,-47.33865,-22.77551,194.5778,207.639,15,0.1724466,0.3383405,-0.3211389,-0.1154736,0.03951196,0.1542929,-0.8847511,0.6101159,-0.2808026,-0.1161046,-0.08389788,0.1752307,5,0
2013-11-05 23:45:21.616,70,7,40.68913,-73.95132,17.21213,6.3,171.4341,12,10,1383713121,0.3399048,-0.2819672,-1.471161,22.94823,-47.99997,-22.132,196.8038,209.8651,15,1.041984,-0.5679548,-0.2638055,-0.1256911,0.04922909,0.1532606,0.6645168,-0.2303856,-0.330288,0.1183445,-0.0963774,-0.3928473,5,0
2013-11-05 23:45:21.724,71,7.1,40.68913,-73.95132,17.21213,6.3,171.4341,12,10,1383713121,0.09472656,-0.2840118,-1.015274,21.37666,-48.31329,-22.30134,194.2446,207.3059,15,0.5317203,-0.1077076,-0.4675366,-0.1009365,0.0303604,0.1815212,0.4973539,-0.08653403,-0.4756233,-0.1937364,-0.1358192,-0.3252174,5,0
2013-11-05 23:45:21.810,72,7.2,40.68913,-73.95132,17.21213,6.3,171.4341,12,10,1383713121,0.3513031,-0.2864685,-1.031128,23.26257,-49.00943,-21.96265,195.1241,208.1854,15,-0.6518787,0.7515928,0.1513184,-0.1276639,0.05752593,0.1608231,-0.7797219,0.6052247,0.1652082,0.325282,-0.0981243,0.02145849,5,0
2013-11-05 23:45:21.909,73,7.3,40.68913,-73.95132,17.21213,6.3,171.4341,12,10,1383713121,0.175705,-0.2470245,-0.8987427,24.27536,-48.83539,-22.40296,195.8866,208.9479,15,0.8700819,-0.2770678,0.006808638,-0.1272052,0.05699787,0.1819261,0.8527735,-0.461086,-0.04169155,0.100101,-0.05181805,-0.2032655,5,0
2013-11-05 23:45:22.018,74,7.4,40.68913,-73.95132,17.21213,6.3,171.4341,12,10,1383713121,-0.151123,-0.296402,-1.045715,23.29748,-48.34808,-22.33521,195.9958,209.057,15,-0.5412529,0.5380832,-0.00373748,-0.1127145,0.05268108,0.1766374,-0.9506556,0.4223911,0.08305851,-0.1694064,-0.1222534,0.1673243,5,0
2013-11-05 23:45:22.109,75,7.5,40.68913,-73.95132,17.21213,6.3,171.4341,12,10,1383713121,0.1022491,-0.1965942,-0.7973633,23.85625,-48.41766,-22.06428,196.2594,209.3207,15,-0.4707561,0.3854018,0.08230846,-0.1164446,0.04274969,0.1930687,-0.4331806,0.1704678,0.04243509,0.02533338,0.01627333,0.2732938,5,0
2013-11-05 23:45:22.210,76,7.6,40.68913,-73.95132,17.21213,6.3,171.4341,12,10,1383713121,0.1490936,-0.3022156,-1.281235,23.61179,-48.52209,-21.21754,194.9192,207.9804,15,0.7497312,-0.2396997,-0.1793983,-0.1163858,0.06411559,0.1830872,0.4992908,-0.09954501,-0.185934,0.07521331,-0.1737994,-0.3003045,5,0
2013-11-05 23:45:22.329,77,7.7,40.68913,-73.95132,17.21213,6.3,171.4341,12,10,1383713121,-0.03817749,-0.2198181,-0.3413696,24.31028,-49.35748,-19.5918,196.7348,209.7961,15,-0.8540305,0.2995337,0.2379668,-0.1072064,0.03200722,0.2484864,-0.4918019,0.0413318,0.2978864,-0.01772844,0.05623983,0.6049435,5,0
2013-11-05 23:45:22.409,78,7.8,40.68913,-73.95132,17.21213,6.3,171.4341,12,10,1383713121,0.3276367,-0.3453827,-1.383652,23.96104,-49.98401,-20.8111,193.871,206.9323,15,1.117306,-0.8203285,-0.7269223,-0.1170451,0.08763115,0.1815135,0.8168288,-0.6614926,-0.7246565,0.1415189,-0.2363517,-0.7262267,5,0
2013-11-05 23:45:22.526,79,7.9,40.68901,-73.9513,16.43756,8.04,171.573,12,10,1383713122,0.4207764,-0.1505585,-0.524704,24.65952,-50.54092,-19.93052,195.8611,208.9223,15,-0.3117989,0.09595183,0.4382767,-0.1326658,0.05218141,0.2257605,-0.2157511,0.09749341,0.4907491,0.4409108,0.07428093,0.444611,5,0
2013-11-05 23:45:22.616,80,8,40.68901,-73.9513,16.43756,8.04,171.573,12,10,1383713122,0.001739502,-0.2813263,-0.977417,23.7515,-50.12326,-20.33694,194.7743,207.8355,15,0.4711992,-0.1533456,-0.2832088,-0.115572,0.05159511,0.2006077,0.4103135,-0.1972463,-0.2474897,-0.2713937,-0.1103054,-0.3623618,5,0
2013-11-05 23:45:22.709,81,8.1,40.68901,-73.9513,16.43756,8.04,171.573,12,10,1383713122,0.1491394,-0.2736359,-1.469116,23.3324,-49.2879,-20.74337,194.9751,208.0363,15,0.3530302,0.1977954,-0.03160959,-0.1219722,0.0617524,0.175597,-0.6641514,0.6686434,0.08138043,0.1643335,-0.07284738,0.1940341,5,0
2013-11-05 23:45:22.811,82,8.2,40.68901,-73.9513,16.43756,8.04,171.573,12,10,1383713122,0.1974792,-0.1137543,-0.572876,23.54195,-49.0094,-20.40469,196.1654,209.2267,15,-0.01640587,-0.05759885,0.2613001,-0.12999,0.03629168,0.225813,0.3367007,-0.3342803,0.1274173,0.1548535,0.07405747,0.2964041,5,0
2013-11-05 23:45:22.916,83,8.3,40.68901,-73.9513,16.43756,8.04,171.573,12,10,1383713122,0.04771423,-0.3403931,-1.073364,23.36732,-49.11383,-20.70951,195.3716,208.4329,15,-0.007976966,0.03759318,-0.3108828,-0.1159552,0.05376598,0.1969353,0.2101834,-0.2145371,-0.3138819,-0.2801946,-0.2224413,-0.4514866,5,0
2013-11-05 23:45:23.009,84,8.400001,40.68901,-73.9513,16.43756,8.04,171.573,12,10,1383713122,0.2387543,-0.2735291,-1.033188,23.68164,-49.70554,-20.7434,193.9925,207.0538,15,0.3092662,-0.2725447,-0.05232073,-0.1259163,0.06019381,0.1891319,0.2554258,-0.1381654,-0.1253166,0.05491368,0.03587624,-0.05646097,5,0
2013-11-05 23:45:23.109,85,8.5,40.68901,-73.9513,16.43756,8.04,171.573,12,10,1383713122,-0.1466675,-0.3300018,-1.191849,23.4721,-50.1232,-20.60792,193.3513,206.4126,15,0.1210119,0.04392831,-0.2404579,-0.1179603,0.05124989,0.19432,0.1533632,-0.03944984,-0.1663332,-0.1514291,-0.1359717,-0.1955546,5,0
2013-11-05 23:45:23.225,86,8.6,40.68901,-73.9513,16.43756,8.04,171.573,12,10,1383713122,0.1941223,-0.175354,-0.9859467,23.71657,-48.97458,-20.98048,194.0201,207.0814,15,0.391922,-0.2203928,0.02556315,-0.129062,0.05285847,0.2000571,0.3257419,-0.2315538,-0.03324689,0.07871307,0.04293309,0.01843554,5,0
2013-11-05 23:45:23.309,87,8.7,40.68901,-73.9513,16.43756,8.04,171.573,12,10,1383713122,0.2075958,-0.2100067,-1.326828,24.51983,-48.52206,-21.89495,194.5926,207.6538,15,0.9788502,-0.8053532,-0.1497069,-0.1198542,0.07443663,0.1777287,0.1875767,0.3258627,-0.1663845,-0.1201477,-0.0896697,-0.4602349,5,0
2013-11-05 23:45:23.409,88,8.8,40.68901,-73.9513,16.43756,8.04,171.573,12,10,1383713122,0.07092285,-0.1920013,-0.5132141,23.99596,-48.34802,-21.25143,195.2171,208.2783,15,-0.3284138,0.08418865,0.1275817,-0.1258194,0.03753496,0.2229548,0.2022387,-0.3033219,0.09542593,0.1570215,-0.04022505,0.3886545,5,0
2013-11-05 23:45:23.535,89,8.900001,40.68892,-73.95128,15.76947,8.97,171.5805,12,10,1383713123,0.2581635,-0.1858215,-1.484558,23.7515,-48.59167,-21.48852,193.1594,206.2207,15,1.253933,-0.9761308,-0.5242227,-0.1157925,0.08387796,0.1619722,0.4242629,-0.06620768,-0.4095295,-0.1955065,-0.1081748,-0.6214627,5,0
2013-11-05 23:45:23.609,90,9,40.68892,-73.95128,15.76947,8.97,171.5805,12,10,1383713123,0.03652954,-0.307663,-0.9063263,23.64672,-47.86072,-20.70953,194.8742,207.9355,15,-0.2268009,0.2062315,-0.06334142,-0.1254602,0.04613029,0.2023197,-0.4178346,0.08761314,0.02280207,0.03958922,-0.01184154,0.4945369,5,0
2013-11-05 23:45:23.712,91,9.1,40.68892,-73.95128,15.76947,8.97,171.5805,12,10,1383713123,0.2580109,-0.1520996,-1.008514,23.68164,-47.40826,-20.47242,194.4194,207.4806,15,0.1566274,-0.02958985,0.05926439,-0.1277084,0.05498669,0.184716,0.1215694,-0.1635813,-0.08747405,0.09670227,-0.02192959,-0.03729605,5,0
2013-11-05 23:45:23.820,92,9.2,40.68892,-73.95128,15.76947,8.97,171.5805,12,10,1383713123,0.03115845,-0.1339111,-1.262955,23.40225,-47.40829,-21.01431,193.9538,207.015,15,0.4434467,-0.3970331,0.02348429,-0.1274465,0.08875323,0.195091,0.4537782,-0.4318467,-0.06408985,-0.1669266,0.02924396,-0.3784831,5,0
2013-11-05 23:45:23.909,93,9.3,40.68892,-73.95128,15.76947,8.97,171.5805,12,10,1383713123,0.1532745,-0.1305542,-0.657486,23.08793,-47.51266,-21.25141,194.4436,207.5049,15,-0.3487101,0.2365936,0.01402634,-0.131184,0.06754245,0.2120978,-0.1121215,-0.003621507,-0.07609417,0.005005158,0.04014677,0.1595055,5,0
2013-11-05 23:45:24.009,94,9.400001,40.68892,-73.95128,15.76947,8.97,171.5805,12,10,1383713123,0.3383026,-0.02073669,-0.9690552,23.43717,-46.88617,-21.2514,194.2068,207.268,15,-0.2155826,0.4283601,0.1298331,-0.1420021,0.09250513,0.1911173,0.1909674,-0.08137438,-0.1700506,0.1474373,0.1398461,-0.1565604,5,0
2013-11-05 23:45:24.122,95,9.5,40.68892,-73.95128,15.76947,8.97,171.5805,12,10,1383713123,0.07177734,-0.197403,-0.9783173,22.91333,-48.59164,-21.69167,192.9475,206.0088,15,0.6118743,-0.5700043,0.05582651,-0.1344524,0.08390639,0.2102038,0.800523,-0.8393993,0.02065264,-0.01528232,0.004344056,-0.1916815,5,0
2013-11-05 23:45:24.208,96,9.6,40.68892,-73.95128,15.76947,8.97,171.5805,12,10,1383713123,0.05149841,-0.1275024,-0.8121643,22.49426,-49.77512,-21.28526,192.6117,205.6729,15,-0.5604742,0.5384166,0.04356266,-0.1277332,0.05783516,0.216319,-0.2426334,-0.06777419,-0.1114758,-0.1223737,0.07179835,0.06221932,5,0
2013-11-05 23:45:24.312,97,9.7,40.68892,-73.95128,15.76947,8.97,171.5805,12,10,1383713123,-0.0158844,-0.2441864,-1.462051,22.8435,-49.00937,-20.94656,192.4301,205.4914,15,0.6406721,-0.4618305,-0.2069204,-0.1190303,0.08342488,0.193352,0.2313015,-0.1308367,0.032656,-0.03172655,0.05231794,-0.5926955,5,0
2013-11-05 23:45:24.424,98,9.8,40.68892,-73.95128,15.76947,8.97,171.5805,12,10,1383713123,0.006668091,-0.09115601,-0.6638336,22.70381,-47.89554,-19.79501,194.3103,207.3716,15,-0.5666149,0.5647779,-0.08703344,-0.1267835,0.04452293,0.235084,-0.4342652,0.1458586,0.0351374,0.01067107,0.1491539,0.4111063,5,0
2013-11-05 23:45:24.519,99,9.900001,40.68885,-73.95126,15.20444,8.85,171.5805,12,10,1383713124,0.06535339,-0.2229309,-1.258057,22.87842,-48.69614,-19.96436,192.9791,206.0404,15,-0.3114538,0.6619948,-0.04838671,-0.1269502,0.07761363,0.2069053,-0.3062534,0.5404313,0.008584263,0.004852255,0.06344916,-0.2247906,5,0
2013-11-05 23:45:24.608,100,10,40.68885,-73.95126,15.20444,8.85,171.5805,12,10,1383713124,-0.06884766,-0.1726074,-0.6514893,23.19274,-48.03476,-20.8111,194.3787,207.4399,15,-0.4383933,0.251191,0.3474299,-0.1282126,0.05574204,0.2371226,-0.4211763,0.1200079,0.449146,0.1294243,0.08143381,0.3841434,5,0
2013-11-05 23:45:24.716,101,10.1,40.68885,-73.95126,15.20444,8.85,171.5805,12,10,1383713124,0.1110687,-0.09457397,-1.132263,22.70381,-47.33859,-21.01429,194.5009,207.5621,15,-0.5106087,0.657213,-0.0912423,-0.1268591,0.05561556,0.2087471,-0.7443619,0.5370232,-0.0931291,-0.03606963,0.1234331,0.1642635,5,0
2013-11-05 23:45:24.809,102,10.2,40.68885,-73.95126,15.20444,8.85,171.5805,12,10,1383713124,0.06352234,-0.1403046,-0.9045258,22.17996,-48.41763,-22.33521,192.6485,205.7098,15,0.632342,-0.5765046,0.009785519,-0.1297728,0.05040926,0.2205517,0.691767,-0.7231934,0.01450269,0.03010205,0.05720789,-0.1927294,5,0
2013-11-05 23:45:24.910,103,10.3,40.68885,-73.95126,15.20444,8.85,171.5805,12,10,1383713124,-0.07041931,-0.06317139,-0.7579803,21.06241,-48.4176,-21.04818,192.995,206.0562,15,-0.3763057,0.4216849,-0.006375608,-0.1243545,0.02809422,0.2324246,-0.2755227,0.1391754,0.006108014,-0.09677794,0.1762605,0.2051029,5,0
2013-11-05 23:45:25.020,104,10.4,40.68885,-73.95126,15.20444,8.85,171.5805,12,10,1383713124,0.2494049,-0.1392975,-1.17366,21.65612,-48.87009,-20.8111,192.487,205.5483,15,0.2991103,-0.07442363,0.04403483,-0.1311819,0.05766961,0.2210363,0.245486,-0.000445712,-0.03737806,0.1453637,0.07957709,-0.2107046,5,0
2013-11-05 23:45:25.109,105,10.5,40.68885,-73.95126,15.20444,8.85,171.5805,12,10,1383713124,0.002639771,-0.162796,-0.871048,21.55136,-49.46179,-20.09986,192.3762,205.4374,15,0.02072605,-0.0860731,0.06112674,-0.1276611,0.03694694,0.2488958,0.279688,-0.3953688,-0.01258762,-0.04510814,0.01975621,-0.07973997,5,0
2013-11-05 23:45:25.208,106,10.6,40.68885,-73.95126,15.20444,8.85,171.5805,12,10,1383713124,0.007797241,-0.1239624,-1.122772,18.47806,-47.23419,-15.96781,190.7082,203.7695,15,0.3680036,-0.2179622,-0.1881891,-0.1315579,0.04492684,0.240987,0.3544928,-0.1922604,-0.2782764,-0.2699628,0.05634925,-0.2902225,5,0
2013-11-05 23:45:25.319,107,10.7,40.68885,-73.95126,15.20444,8.85,171.5805,12,10,1383713124,0.1392365,-0.06544495,-1.725327,18.19867,-47.02536,-17.1871,188.617,201.6782,15,0.2779669,0.3978158,-0.04942134,-0.132721,0.08023103,0.2062348,-0.4882044,1.044469,0.01007033,-0.006821866,0.1424743,-0.292513,5,0
2013-11-05 23:45:25.416,108,10.8,40.68885,-73.95126,15.20444,8.85,171.5805,12,10,1383713124,-0.06518555,-0.03747559,-0.7345886,18.79239,-47.75632,-17.35644,189.9794,203.0407,15,-0.2575812,0.2230179,0.2450031,-0.1309664,0.01852719,0.262575,-0.0865878,-0.0622922,0.2261913,0.0546644,0.133851,0.2986584,5,0
2013-11-05 23:45:25.508,109,10.9,40.68876,-73.95125,16.26315,9.33,171.5805,12,10,1383713125,0.1292267,0.01647949,-1.122726,19.45593,-48.62643,-19.62566,189.2074,202.2686,15,0.9529203,-0.7191459,-0.1909271,-0.1324206,0.05730505,0.2448396,0.8277879,-0.4364041,-0.2740311,-0.131829,0.2682186,-0.6474899,5,0
2013-11-05 23:45:25.610,110,11,40.68876,-73.95125,16.26315,9.33,171.5805,12,10,1383713125,0.1516724,-0.2077789,-0.9346161,19.45593,-49.3226,-20.30305,189.9789,203.0401,15,-0.6451633,1.079998,0.1626635,-0.1354888,0.03577577,0.269364,-0.5964754,0.6198872,0.1796188,0.1704319,0.1227621,0.3536434,5,0
2013-11-05 23:45:25.709,111,11.1,40.68876,-73.95125,16.26315,9.33,171.5805,12,10,1383713125,0.09660339,-0.2099304,-0.5355072,19.31624,-50.15793,-21.18366,190.3011,203.3624,15,0.4265103,-0.09922459,0.2687159,-0.1343641,0.01617202,0.3385197,0.762083,-0.4632376,0.1551996,0.1437583,0.04637035,0.1349574,5,0
2013-11-05 23:45:25.808,112,11.2,40.68876,-73.95125,16.26315,9.33,171.5805,12,10,1383713125,-0.06974792,-0.2069855,-2.074173,18.72253,-49.63586,-21.42074,189.4267,202.488,15,0.06946936,0.298257,-0.2510623,-0.1098645,0.08345642,0.2655537,-0.6434723,1.350165,-0.1134469,-0.4497003,-0.01284016,-0.7355242,5,0
2013-11-05 23:45:25.908,113,11.3,40.68876,-73.95125,16.26315,9.33,171.5805,12,10,1383713125,0.1130371,-0.2590485,-0.4940796,17.95419,-49.28781,-21.14979,188.3239,201.3851,15,-0.05468562,0.005646701,0.09587939,-0.1334545,0.01712619,0.320516,0.1842006,-0.289265,0.144058,0.1907628,0.0249867,0.3389485,5,0
2013-11-05 23:45:26.009,114,11.4,40.68876,-73.95125,16.26315,9.33,171.5805,12,10,1383713125,0.1127014,-0.1705475,-0.7826233,17.98911,-48.48724,-18.67733,189.2607,202.322,15,-0.09835,0.003271161,0.0960272,-0.137528,0.02681665,0.2853413,-0.05239882,-0.1496975,0.07599146,0.1360902,0.1403717,0.05237555,5,0
2013-11-05 23:45:26.109,115,11.5,40.68876,-73.95125,16.26315,9.33,171.5805,12,10,1383713125,0.03282166,-0.0355072,-0.9851227,17.57002,-46.8165,-20.30305,189.2078,202.2691,15,-0.3803801,0.3183143,0.04369848,-0.1338132,0.04054286,0.2490854,-0.5231806,0.3669298,0.0198852,-0.07970141,0.2158933,0.1137429,5,0
2013-11-05 23:45:26.208,116,11.6,40.68876,-73.95125,16.26315,9.33,171.5805,12,10,1383713125,0.08035278,-0.02577209,-0.8677826,17.77957,-45.56345,-21.79328,188.4973,201.5586,15,0.7417684,-0.8011364,-0.1477168,-0.1380723,0.0459653,0.1960543,0.6851877,-0.8515033,-0.1777187,-0.007135505,0.1329722,-0.2544308,5,0
2013-11-05 23:45:26.308,117,11.7,40.68876,-73.95125,16.26315,9.33,171.5805,12,10,1383713125,0.03311157,-0.04310608,-0.6678467,16.90646,-45.73746,-22.16586,189.7437,202.8049,15,0.08194759,0.01536404,-0.08236039,-0.1400072,-0.00108724,0.2292349,0.1193999,-0.1136547,-0.02414578,0.04503463,0.1753526,0.3616726,5,0
2013-11-05 23:45:26.408,118,11.8,40.68876,-73.95125,16.26315,9.33,171.5805,12,10,1383713125,-0.0526886,-0.2572937,-1.345383,15.29996,-46.85126,-23.18192,187.7415,200.8027,15,-0.1504271,0.9451945,-0.1082495,-0.1353084,0.05310511,0.1980608,-0.397097,1.141577,-0.02531555,-0.11381,-0.014932,-0.04519367,5,0
2013-11-05 23:45:26.508,119,11.9,40.68876,-73.95125,16.26315,9.33,171.5805,12,10,1383713125,0.1656342,-0.1523285,-1.267044,15.61429,-49.2529,-23.89318,184.9971,198.0584,15,0.3867698,-0.2208005,0.1573545,-0.1388196,0.07475766,0.1988701,0.2623432,-0.1375814,0.1470271,0.2105975,0.0563112,-0.2935657,5,0
2013-11-05 23:45:26.608,120,12,40.68868,-73.95123,16.4928,9.79,171.5805,12,10,1383713126,0.03475952,-0.1345215,-0.6180573,15.47459,-50.6452,-23.08031,185.6165,198.6778,15,-0.8784288,0.6257968,-0.1073643,-0.1397522,0.03303801,0.2245434,-0.6547375,0.2377801,-0.1496026,-0.03327087,0.04059339,0.3564897,5,0
2013-11-05 23:45:26.708,121,12.1,40.68868,-73.95123,16.4928,9.79,171.5805,12,10,1383713126,0.2182922,-0.177948,-0.8574219,15.61429,-50.854,-22.6739,184.7351,197.7964,15,0.0430191,0.0607001,0.04939099,-0.1432631,0.057148,0.2046103,0.1548109,-0.3162056,-0.03479262,0.16226,0.06800798,-0.123151,5,0
2013-11-05 23:45:26.808,122,12.2,40.68868,-73.95123,16.4928,9.79,171.5805,12,10,1383713126,-0.01696777,-0.1140594,-1.183167,16.94141,-49.94907,-22.5384,185.7249,198.7862,15,-0.2004055,0.5858225,-0.1516771,-0.1391707,0.08315304,0.1864852,-0.291342,0.4607349,-0.1117235,-0.1345042,0.008602618,-0.1001401,5,0
2013-11-05 23:45:26.909,123,12.3,40.68868,-73.95123,16.4928,9.79,171.5805,12,10,1383713126,0.06491089,-0.1689453,-0.6286163,16.87156,-50.01868,-21.1159,185.951,199.0122,15,0.3567624,-0.1116855,0.02656663,-0.1511704,0.0520051,0.2365206,0.5541812,-0.4113171,0.08480803,0.01928977,0.06056964,0.2793775,5,0
2013-11-05 23:45:27.008,124,12.4,40.68868,-73.95123,16.4928,9.79,171.5805,12,10,1383713126,0.2443542,-0.1880035,-1.476517,16.73187,-49.46179,-20.77721,186.0588,199.1201,15,-0.4839312,1.154704,0.1221232,-0.1451405,0.1055879,0.180387,-0.9833556,1.550585,0.2300711,0.1185472,0.05343377,0.06171526,5,0
2013-11-05 23:45:27.108,125,12.5,40.68868,-73.95123,16.4928,9.79,171.5805,12,10,1383713126,0.1723938,-0.2216492,-0.9460449,18.82731,-49.18332,-22.19971,187.2557,200.317,15,0.05254656,0.1124245,0.4320816,-0.1358817,0.07222539,0.2161171,0.05769979,-0.04862774,0.4768158,0.2284052,0.02028586,0.07689789,5,0
2013-11-05 23:45:27.208,126,12.6,40.68868,-73.95123,16.4928,9.79,171.5805,12,10,1383713126,-0.008285522,-0.2083282,-0.8550568,17.98913,-49.11374,-20.16755,187.9295,200.9907,15,0.2714994,-0.2500761,-0.02492319,-0.1370481,0.059653,0.2324268,0.3666269,-0.4428947,-0.1059449,-0.1193091,0.005974471,0.04134095,5,0
2013-11-05 23:45:27.308,127,12.7,40.68868,-73.95123,16.4928,9.79,171.5805,12,10,1383713126,0.197937,-0.2548981,-1.22464,17.9542,-48.10434,-19.38856,188.0473,201.1085,15,-0.1769175,0.4747207,-0.3440799,-0.1365243,0.09566029,0.190214,-0.4449008,0.6737635,-0.2598688,-0.1296499,-0.1331203,-0.1040992,5,0
2013-11-05 23:45:27.409,128,12.8,40.68868,-73.95123,16.4928,9.79,171.5805,12,10,1383713126,0.3613892,-0.1325836,-0.9045105,19.45593,-46.53802,-19.69337,189.7876,202.8488,15,-0.6118783,0.7516735,0.3774424,-0.1599565,0.09426552,0.1759728,-0.7569845,0.5042791,0.3707138,0.3866367,0.05320934,0.2750006,5,0
2013-11-05 23:45:27.508,129,12.9,40.68861,-73.95122,16.0209,9,171.5805,12,10,1383713127,0.06469727,-0.06182861,-0.8281555,19.56071,-45.38937,-20.67558,189.2362,202.2975,15,0.4086778,-0.2661497,0.2171022,-0.1533556,0.0862754,0.1833028,0.4439074,-0.4058101,0.127398,-0.07537119,0.09714926,-0.05802299,5,0
2013-11-05 23:45:27.609,130,13,40.68861,-73.95122,16.0209,9,171.5805,12,10,1383713127,-0.1012421,-0.1470795,-0.7194672,19.73533,-44.24075,-19.28693,191.0951,204.1563,15,0.1299788,-0.1952156,0.01513368,-0.1378704,0.06234704,0.1999834,0.1588052,-0.3402092,0.05848378,-0.1821434,0.09776198,0.2686167,5,0
2013-11-05 23:45:27.709,131,13.1,40.68861,-73.95122,16.0209,9,171.5805,12,10,1383713127,0.1609344,-0.2131805,-1.034622,19.17654,-44.10153,-18.74502,191.0611,204.1223,15,-0.2948638,0.9016656,-0.01067954,-0.136103,0.06737538,0.1947887,-0.2973769,0.5834838,-0.04125675,0.009403495,-0.03851165,0.06199251,5,0
2013-11-05 23:45:27.808,132,13.2,40.68861,-73.95122,16.0209,9,171.5805,12,10,1383713127,0.288681,-0.4220123,-1.277634,18.93207,-44.76285,-19.79498,189.3214,202.3826,15,-0.08200512,0.4033722,0.1269992,-0.1337294,0.1054596,0.1949065,-0.09384493,0.2606391,0.1195027,0.2026065,-0.2083028,-0.1986706,5,0
2013-11-05 23:45:27.908,133,13.3,40.68861,-73.95122,16.0209,9,171.5805,12,10,1383713127,0.09468079,-0.3642426,-0.7168427,19.70041,-43.78827,-19.11759,190.5179,203.5791,15,0.2756076,-0.3778054,0.08114519,-0.1393122,0.06950802,0.2371918,0.5502967,-0.717659,0.03358768,0.008298143,-0.1356773,-0.002879614,5,0
2013-11-05 23:45:28.009,134,13.4,40.68861,-73.95122,16.0209,9,171.5805,12,10,1383713127,0.05633545,-0.2625275,-0.9564209,19.90995,-43.85788,-18.37247,192.0692,205.1304,15,-0.8700028,0.8720417,-0.007494934,-0.1394884,0.07862469,0.2084083,-0.736883,0.6191367,-0.01634271,-0.05841152,-0.02339798,0.1345645,5,0
2013-11-05 23:45:28.108,135,13.5,40.68861,-73.95122,16.0209,9,171.5805,12,10,1383713127,0.3710022,-0.1647186,-0.8667755,21.13228,-42.01312,-20.57398,192.238,205.2993,15,0.4026934,-0.7012244,-0.07609344,-0.1567934,0.09772113,0.1827302,0.4962811,-0.9019731,-0.2478357,0.2146666,-0.0389881,-0.2371606,5,0
2013-11-05 23:45:28.208,136,13.6,40.68861,-73.95122,16.0209,9,171.5805,12,10,1383713127,-0.3193207,-0.2275085,-0.9903564,20.36395,-41.73468,-19.89658,193.3567,206.418,15,0.07496905,-0.08848512,-0.1105936,-0.1411192,0.05763697,0.185625,-0.03409549,-0.1366284,-0.02733569,-0.3266045,-0.05019564,0.05076915,5,0
2013-11-05 23:45:28.311,137,13.7,40.68861,-73.95122,16.0209,9,171.5805,12,10,1383713127,-0.08239746,-0.1082611,-0.8776245,20.81795,-40.93414,-19.79499,195.97,209.0313,15,0.2413005,-0.2135962,-0.1243963,-0.1514411,0.04864645,0.1863999,0.1430605,-0.2573159,-0.1207488,-0.1375219,0.08157787,0.1423124,5,0
2013-11-05 23:45:28.414,138,13.8,40.68861,-73.95122,16.0209,9,171.5805,12,10,1383713127,0.01351929,-0.280838,-1.000336,22.2149,-42.32639,-19.99821,198.771,211.8322,15,-0.1296693,0.6852521,-0.01796675,-0.1519825,0.05340677,0.1842123,-0.2004546,0.5292716,0.005846795,-0.03216876,-0.03940772,0.1433613,5,0
2013-11-05 23:45:28.508,139,13.9,40.68847,-73.95119,16.00534,10.3,171.5805,8,10,1383713128,0.2854004,-0.1631927,-0.9850769,22.66892,-43.4054,-21.04816,197.2968,210.3581,15,0.4961613,-0.1452848,-0.1689456,-0.1732908,0.1044145,0.1870388,0.5052729,-0.2269681,-0.2798892,0.1274971,-0.01728162,-0.0807297,5,0
2013-11-05 23:45:28.611,140,14,40.68847,-73.95119,16.00534,10.3,171.5805,8,10,1383713128,0.09042358,-0.2795258,-1.262802,25.35809,-44.55402,-20.40464,198.4578,211.519,15,0.2717117,-0.3949705,0.09861739,-0.1697271,0.1180868,0.1861653,0.167265,-0.05029815,0.02767943,-0.03015981,-0.04694854,-0.09791409,5,0
2013-11-05 23:45:28.708,141,14.1,40.68847,-73.95119,16.00534,10.3,171.5805,8,10,1383713128,0.3213806,-0.1378174,-1.119995,26.19626,-45.87668,-21.21749,198.5814,211.6426,15,0.7097023,-0.8511154,-0.05670216,-0.1707652,0.1069559,0.1873995,0.7136525,-0.8340505,-0.1729232,0.0692044,0.02411892,-0.4343314,5,0
2013-11-05 23:45:28.808,142,14.2,40.68847,-73.95119,16.00534,10.3,171.5805,8,10,1383713128,-0.03507996,-0.1461487,-1.2202,27.03444,-48.87006,-21.82714,199.0216,212.0828,15,0.2498546,0.04069337,0.0786277,-0.1652346,0.07840223,0.2024545,0.1631473,0.01650806,0.04736514,-0.09050097,0.0009858087,-0.03524345,5,0
2013-11-05 23:45:28.915,143,14.3,40.68847,-73.95119,16.00534,10.3,171.5805,8,10,1383713128,0.1119385,-0.3056946,-1.15535,26.1264,-50.88882,-20.54011,197.2781,210.3393,15,0.4637994,-0.1361179,-0.2944292,-0.1679909,0.07860645,0.2099219,0.1927301,0.06997744,-0.2786075,-0.1043133,-0.2006283,-0.1879826,5,0
2013-11-05 23:45:29.010,144,14.4,40.68847,-73.95119,16.00534,10.3,171.5805,8,10,1383713128,0.068573,-0.1760406,-1.584015,27.03442,-49.84457,-19.59176,199.5628,212.6241,15,-0.03761129,0.706894,0.1196569,-0.1718845,0.07975265,0.2043189,-0.8003358,1.399875,0.0534297,-0.06737562,-0.02444045,0.0384649,5,0
2013-11-05 23:45:29.108,145,14.5,40.68847,-73.95119,16.00534,10.3,171.5805,8,10,1383713128,0.1928711,-0.2427216,-0.7758636,26.96458,-49.56613,-21.01427,198.2231,211.2843,15,0.6498235,-0.6342912,0.2523302,-0.1765458,0.03833899,0.2501581,0.8490735,-0.9977745,0.1441749,0.1671329,0.01634069,0.02521394,5,0
2013-11-05 23:45:29.210,146,14.6,40.68847,-73.95119,16.00534,10.3,171.5805,8,10,1383713128,-0.05654907,-0.2690887,-0.9407196,27.3138,-49.63571,-19.38854,200.5338,213.595,15,0.02322543,-0.02515249,-0.06712285,-0.1607889,0.01228451,0.2484542,-0.2121546,-0.02177122,-0.08432361,-0.1097769,-0.0984392,0.3124823,5,0
2013-11-05 23:45:29.308,147,14.7,40.68847,-73.95119,16.00534,10.3,171.5805,8,10,1383713128,0.1813965,-0.2724762,-1.425018,26.1264,-50.12302,-20.26917,199.8181,212.8793,15,-0.4342947,0.7913272,-0.1354321,-0.1656703,0.06019568,0.2019768,-0.6775815,0.9787185,-0.1457463,-0.04453212,-0.09278963,-0.189644,5,0
2013-11-05 23:45:29.414,148,14.8,40.68847,-73.95119,16.00534,10.3,171.5805,8,10,1383713128,0.2651978,-0.21492,-1.286148,25.04374,-49.39206,-20.57398,197.1617,210.2229,15,0.7833712,-0.7755804,-0.1926864,-0.1693443,0.07481623,0.1908791,0.5039365,-0.4567134,-0.1138044,0.2347013,-0.04117391,-0.3886151,5,0
2013-11-05 23:45:29.519,149,14.9,40.68841,-73.95118,14.87469,10.6,171.5805,8,10,1383713129,0.07125854,-0.1447144,-0.4499969,23.36737,-48.55673,-19.5579,198.3808,211.4421,15,-0.2220048,0.2134287,0.3033479,-0.1747217,0.003484897,0.2481406,0.2967115,-0.3837635,0.2334616,0.1419771,0.05888009,0.3687942,5,0
2013-11-05 23:45:29.610,150,15,40.68841,-73.95118,14.87469,10.6,171.5805,8,10,1383713129,0.1278381,-0.08834839,-0.7149658,21.62119,-47.4429,-18.94825,197.179,210.2402,15,0.2976882,-0.1805655,-0.1532766,-0.1823641,0.02321091,0.2458301,0.2832589,-0.2030577,-0.2916889,-0.03233773,0.09525974,0.2136624,5,0
2013-11-05 23:45:29.712,151,15.1,40.68841,-73.95118,14.87469,10.6,171.5805,8,10,1383713129,0.1144867,-0.5763702,-1.666077,20.71317,-47.72134,-19.42243,196.5937,209.6549,15,-0.4913399,1.298422,0.2049718,-0.167659,0.06004933,0.2131034,-0.9323584,1.536623,0.3554914,0.1519919,-0.2511371,-0.1328113,5,0
2013-11-05 23:45:29.818,152,15.2,40.68841,-73.95118,14.87469,10.6,171.5805,8,10,1383713129,0.1416016,-0.2880249,-0.6712952,19.66544,-47.72137,-20.37077,195.5171,208.5783,15,0.6245073,-0.6599204,0.2910321,-0.1685179,0.02030125,0.2590129,0.82266,-1.053039,0.1730282,0.2005158,-0.05266561,-0.1200733,5,0
2013-11-05 23:45:29.909,153,15.3,40.68841,-73.95118,14.87469,10.6,171.5805,8,10,1383713129,0.1654053,-0.2887115,-1.298248,19.63051,-47.12967,-20.13367,196.2809,209.3421,15,0.6108013,-0.6656699,-0.6425079,-0.1550675,0.04948806,0.2085037,0.3283291,-0.2885273,-0.5265127,-0.2733415,-0.09233538,-0.5664504,5,0
2013-11-05 23:45:30.012,154,15.4,40.68841,-73.95118,14.87469,10.6,171.5805,8,10,1383713129,0.5527802,-0.1301422,-0.3331757,20.71317,-47.16443,-20.77721,197.9462,211.0074,15,-0.4327911,-0.04602075,-0.004677842,-0.2162024,0.007016892,0.2488576,-0.09814199,-0.2900101,-0.3138048,0.4684801,0.0002946773,0.5246973,5,0
2013-11-05 23:45:30.127,155,15.5,40.68841,-73.95118,14.87469,10.6,171.5805,8,10,1383713129,-0.1696014,-0.153595,-1.271942,20.11945,-46.85114,-21.75941,196.3237,209.385,15,0.6833826,-0.5654504,0.01828793,-0.1896184,0.04233787,0.1919975,0.7870289,-0.9092243,-0.1381106,-0.2711618,0.007943472,-0.8303661,5,0
2013-11-05 23:45:30.212,156,15.6,40.68841,-73.95118,14.87469,10.6,171.5805,8,10,1383713129,-0.2617188,-0.1458435,-0.983429,19.59558,-48.62631,-22.94485,195.8451,208.9064,15,0.4784161,-0.2215316,-0.1288608,-0.1808724,0.03031783,0.2239431,0.3939972,-0.1868724,-0.03601069,-0.2849273,0.1738429,0.03427367,5,0
2013-11-05 23:45:30.311,157,15.7,40.68841,-73.95118,14.87469,10.6,171.5805,8,10,1383713129,0.05889893,-0.4216156,-0.6582489,18.86217,-51.37607,-21.75941,194.8784,207.9396,15,-0.5154958,0.9355152,0.197524,-0.1812458,0.02345007,0.2507721,-0.2573312,0.4788156,0.1963889,0.04286778,-0.1190202,0.3219551,5,0
2013-11-05 23:45:30.444,158,15.8,40.68841,-73.95118,14.87469,10.6,171.5805,8,10,1383713129,0.2128448,-0.3818512,-1.0923,19.87498,-53.36002,-21.72555,191.3598,204.4211,15,-0.7213933,0.8218156,0.1053174,-0.1812183,0.08907083,0.2227199,-0.335864,0.1914493,0.009857499,0.05103088,-0.2369568,-0.3361984,5,0
2013-11-05 23:45:30.516,159,15.9,40.68832,-73.95116,13.92017,9.52,171.8039,8,10,1383713130,0.1906433,-0.309494,-1.345612,21.06239,-52.87274,-22.26746,191.3396,204.4009,15,-0.3779779,0.6882586,-0.01593662,-0.1780105,0.09944596,0.2093968,-0.7422263,0.7175555,0.1113934,0.1157314,-0.1739813,-0.1189767,5,0
2013-11-05 23:45:30.609,160,16,40.68832,-73.95116,13.92017,9.52,171.8039,8,10,1383713130,0.09101868,-0.1481476,-0.7409515,22.73875,-52.38547,-21.92876,192.6541,205.7153,15,0.3031021,-0.229932,0.04949884,-0.1942363,0.0869839,0.2008786,0.2643213,-0.3535996,0.1041779,0.05793905,0.04886502,0.1745054,5,0
2013-11-05 23:45:30.719,161,16.1,40.68832,-73.95116,13.92017,9.52,171.8039,8,10,1383713130,0.06962585,-0.151413,-0.4517517,22.24983,-51.55014,-20.43853,193.0941,206.1554,15,-0.08510531,0.01882802,0.0213455,-0.1935542,0.06760823,0.2218053,-0.001185607,-0.05973316,0.02451381,-0.01617333,0.1702932,0.4483557,5,0
2013-11-05 23:45:30.809,162,16.2,40.68832,-73.95116,13.92017,9.52,171.8039,8,10,1383713130,0.08277893,-0.3089142,-1.491379,23.40232,-50.61035,-20.13369,193.421,206.4823,15,0.848694,-0.8078244,0.004868791,-0.1796115,0.1052117,0.1777179,0.1802765,0.2517202,0.1484793,-0.03151002,-0.004582122,-0.2691787,5,0
2013-11-05 23:45:30.909,163,16.3,40.68832,-73.95116,13.92017,9.52,171.8039,8,10,1383713130,0.03851318,-0.1916962,-1.381348,23.71664,-51.06284,-20.37078,193.9186,206.9799,15,0.2626018,0.3480352,-0.12007,-0.1745054,0.08989502,0.192305,-0.3909414,0.7756024,0.03300044,-0.01586877,-0.06316584,0.03493018,5,0
2013-11-05 23:45:31.022,164,16.4,40.68832,-73.95116,13.92017,9.52,171.8039,8,10,1383713130,0.2818909,-0.3338013,-0.8152161,25.18346,-51.13245,-20.16756,195.3793,208.4405,15,-0.6712719,1.004788,0.1679637,-0.1892384,0.07841577,0.2154498,-0.7314107,0.5619279,0.2933587,0.2753281,-0.1184275,0.2337967,5,0
2013-11-05 23:45:31.108,165,16.5,40.68832,-73.95116,13.92017,9.52,171.8039,8,10,1383713130,0.08323669,-0.3282166,-0.5994873,25.39301,-50.50595,-19.42245,195.8009,208.8621,15,-0.760071,0.3269587,0.3134083,-0.1759086,0.03138208,0.2476005,0.3856544,-0.7915087,0.3873986,0.1983702,-0.1374138,0.05032476,5,0
2013-11-05 23:45:31.212,166,16.6,40.68832,-73.95116,13.92017,9.52,171.8039,8,10,1383713130,-0.09521484,-0.3573303,-1.567108,24.86914,-49.14847,-20.40466,195.5711,208.6324,15,0.581457,-0.8623017,-0.3123425,-0.1645537,0.07302434,0.2009601,0.320259,-0.3217199,-0.117389,-0.2742042,-0.01111364,-0.8379064,5,0
2013-11-05 23:45:31.321,167,16.7,40.68832,-73.95116,13.92017,9.52,171.8039,8,10,1383713130,0.1008301,-0.03341675,-0.6043854,25.39301,-48.48715,-19.6934,197.754,210.8153,15,-0.06633588,0.05944522,0.008722119,-0.1820913,0.02088002,0.2304532,-0.06413403,-0.002517559,0.06803796,0.133009,0.1472267,0.437691,5,0
2013-11-05 23:45:31.410,168,16.8,40.68832,-73.95116,13.92017,9.52,171.8039,8,10,1383713130,-0.01417542,-0.2951508,-1.417511,25.21838,-47.75616,-19.38856,197.1046,210.1658,15,0.6366393,-0.2372512,-0.2213103,-0.1732514,0.0771758,0.1918242,0.04792902,0.6977135,-0.04025961,-0.07531885,-0.03766735,-0.2168205,5,0
2013-11-05 23:45:31.527,169,16.9,40.68823,-73.95115,14.33188,10.73,171.8039,12,10,1383713131,0.1003265,-0.2487183,-1.132446,24.939,-48.03461,-18.64344,197.2701,210.3314,15,0.8308064,-0.6381125,-0.1037778,-0.1807057,0.07326794,0.2083643,0.7672119,-0.642894,-0.2023159,-0.05282025,-0.1018865,-0.4167103,5,0
2013-11-05 23:45:31.639,170,17,40.68823,-73.95115,14.33188,10.73,171.8039,12,10,1383713131,0.1016693,-0.3441925,-1.397736,21.86568,-47.06,-19.93049,195.1205,208.1818,15,-0.8203628,1.752233,-0.3784794,-0.1640158,0.05739637,0.1978029,-1.200693,1.302408,-0.2930573,-0.1561761,-0.2876458,-0.1304584,5,0
2013-11-05 23:45:31.739,171,17.1,40.68823,-73.95115,14.33188,10.73,171.8039,12,10,1383713131,0.5386047,-0.154892,-1.727356,21.51643,-48.03455,-20.54012,194.8992,207.9604,15,0.8253086,-0.4030287,-0.2164055,-0.1735176,0.1076406,0.1698601,-0.2741401,1.172991,-0.3440933,0.1516359,-0.07726296,-0.5803682,5,0
2013-11-05 23:45:31.808,172,17.2,40.68823,-73.95115,14.33188,10.73,171.8039,12,10,1383713131,0.1978149,-0.1629791,-0.4105225,21.79583,-48.1738,-20.26917,195.8875,208.9487,15,-0.3607334,0.1537472,-0.01301567,-0.1931956,0.0323486,0.2505171,0.1228201,-0.3255385,-0.2062505,0.166329,0.04447479,0.4227453,5,0
2013-11-05 23:45:31.908,173,17.3,40.68823,-73.95115,14.33188,10.73,171.8039,12,10,1383713131,-0.0647583,-0.3561859,-1.92572,21.20212,-48.90475,-20.09982,194.0216,207.0828,15,0.881412,-0.9895127,-0.2208996,-0.1661932,0.1066556,0.2112888,0.688502,-0.1177154,0.05853682,-0.03165266,-0.07629058,-1.002282,5,0
2013-11-05 23:45:32.039,174,17.4,40.68823,-73.95115,14.33188,10.73,171.8039,12,10,1383713131,0.09094238,-0.2621002,-0.737915,18.967,-49.11359,-17.45802,193.9147,206.976,15,0.406539,-0.3154615,0.4261175,-0.173342,0.006225913,0.2685406,0.531803,-0.6291535,0.3391625,0.1070191,-0.01810735,0.03069928,5,0
2013-11-05 23:45:32.109,175,17.5,40.68823,-73.95115,14.33188,10.73,171.8039,12,10,1383713131,-0.03103638,-0.240036,-1.307007,17.98911,-47.6517,-18.40636,192.8375,205.8987,15,-0.1608203,0.1830518,-0.3953979,-0.1468966,0.02082342,0.2157314,-0.5312833,0.7351796,-0.3704435,-0.395202,-0.0690344,-0.237976,5,0
2013-11-05 23:45:32.208,176,17.6,40.68823,-73.95115,14.33188,10.73,171.8039,12,10,1383713131,0.4561462,0.02586365,-0.8068237,18.19866,-46.95554,-20.30305,191.913,204.9742,15,0.5273914,-0.5661241,0.2549883,-0.1822614,0.006708354,0.2192446,0.4484171,-0.5898451,0.07948489,0.4613325,0.1911557,0.05515688,5,0
2013-11-05 23:45:32.339,177,17.7,40.68823,-73.95115,14.33188,10.73,171.8039,12,10,1383713131,-0.2494965,-0.1454926,-0.888092,17.70972,-46.18979,-19.21925,191.8806,204.9418,15,0.1416818,0.4211872,0.09017251,-0.1461604,-0.03413395,0.2331138,-0.3587121,0.4442328,0.345998,0.004395644,0.1610314,0.3443638,5,0
2013-11-05 23:45:32.409,178,17.8,40.68823,-73.95115,14.33188,10.73,171.8039,12,10,1383713131,0.1928864,-0.2176056,-0.5587311,17.46525,-46.43344,-18.44025,192.2431,205.3043,15,-0.6951825,0.8032594,0.1077797,-0.1598203,-0.03855655,0.2724942,-0.1407798,0.1760336,-0.03299129,0.1460877,0.05438221,0.3695371,5,0
2013-11-05 23:45:32.508,179,17.9,40.68814,-73.95113,14.66794,11.29,171.8039,12,10,1383713132,0.2178192,-0.3179169,-1.464462,17.81449,-46.5726,-20.81109,190.3271,203.3884,15,0.5874009,-0.962737,-0.3828952,-0.1557432,0.05096013,0.2188364,0.4425187,-0.738398,-0.3911671,-0.0651041,-0.1401906,-0.9202886,5,0
2013-11-05 23:45:32.638,180,18,40.68814,-73.95113,14.66794,11.29,171.8039,12,10,1383713132,0.01982117,-0.282547,-0.7266998,17.50018,-44.72791,-20.23531,192.9825,206.0437,15,0.01116956,-0.1869851,0.5065308,-0.149803,-0.02890597,0.261362,0.3319736,-0.6907595,0.486694,0.2118651,-0.01894722,0.09551819,5,0
2013-11-05 23:45:32.709,181,18.1,40.68814,-73.95113,14.66794,11.29,171.8039,12,10,1383713132,0.0382843,-0.1690979,-0.8008118,16.3826,-44.44943,-19.96436,192.7851,205.8464,15,-0.620822,0.4293777,-0.2430569,-0.1349375,-0.04944376,0.2351471,-0.3181653,0.05549161,-0.2259646,-0.1749285,0.02247584,0.06401926,5,0
2013-11-05 23:45:32.808,182,18.2,40.68814,-73.95113,14.66794,11.29,171.8039,12,10,1383713132,0.2205505,-0.2247772,-0.8533325,16.66199,-43.96213,-21.52235,192.4619,205.5231,15,0.3709949,-0.3253158,0.01851163,-0.1526072,-0.01605653,0.2111638,0.4055023,-0.4644201,-0.01650928,0.2792948,-0.01246313,-0.09544326,5,0
2013-11-05 23:45:32.938,183,18.3,40.68814,-73.95113,14.66794,11.29,171.8039,12,10,1383713132,-0.03547668,-0.1231537,-0.7270508,16.52229,-43.96213,-21.11591,192.9725,206.0338,15,-0.01971858,0.2824634,0.1582701,-0.1444721,-0.03847688,0.2364994,0.3431434,-0.1854365,0.1630423,0.0565464,0.1073021,0.192636,5,0
2013-11-05 23:45:33.009,184,18.4,40.68814,-73.95113,14.66794,11.29,171.8039,12,10,1383713132,0.1615143,-0.2778625,-1.026978,17.01123,-44.17099,-21.52235,192.3743,205.4356,15,0.4892467,-0.4464486,-0.1667038,-0.1545828,0.009855342,0.233193,0.4239442,-0.3739862,-0.3574839,-0.1598112,-0.09909969,-0.3145435,5,0
2013-11-05 23:45:33.108,185,18.5,40.68814,-73.95113,14.66794,11.29,171.8039,12,10,1383713132,-0.3485413,-0.2957458,-1.621353,17.01125,-44.65829,-21.18365,192.3236,205.3849,15,0.4277005,-0.1656811,-0.2967038,-0.1476084,0.01864214,0.225599,-0.2084184,0.6682983,-0.1015034,-0.2779496,-0.05560666,-0.2432978,5,0
2013-11-05 23:45:33.238,186,18.6,40.68814,-73.95113,14.66794,11.29,171.8039,12,10,1383713132,0.2595825,-0.2854462,-0.6756592,16.17307,-45.42401,-21.86103,191.5071,204.5683,15,-0.7083052,0.7111868,0.1851954,-0.1628915,-0.004397023,0.2504361,-0.04462575,-0.2631528,0.03773727,0.2043331,-0.026847,0.105468,5,0
2013-11-05 23:45:33.309,187,18.7,40.68814,-73.95113,14.66794,11.29,171.8039,12,10,1383713132,0.2018127,-0.3088837,-0.6750183,14.95074,-47.05994,-21.82716,190.054,203.1152,15,-0.1050596,-0.06918839,0.1534684,-0.1628218,-0.007440571,0.2510346,0.3155841,-0.5566419,0.008940634,0.1664785,-0.00308904,0.1341259,5,0
2013-11-05 23:45:33.408,188,18.8,40.68814,-73.95113,14.66794,11.29,171.8039,12,10,1383713132,0.1585388,-0.1938629,-0.9715118,14.53165,-48.10413,-21.75942,188.4217,201.4829,15,0.7837837,-0.9318968,-0.3189817,-0.1642331,0.0104671,0.2273396,0.8507441,-1.035307,-0.361682,-0.047368,-0.01062134,-0.4862636,5,0
2013-11-05 23:45:33.539,189,18.9,40.68805,-73.95111,13.99631,11.5,171.8039,8,10,1383713133,0.1385345,-0.147583,-0.5979919,15.29999,-48.31293,-22.30134,189.9472,203.0084,15,-1.805172,1.751995,0.2437679,-0.1737317,-0.02020721,0.2171733,-1.725802,0.9931629,0.2118549,0.2550828,0.05078204,0.6365436,5,0
2013-11-05 23:45:33.609,190,19,40.68805,-73.95111,13.99631,11.5,171.8039,8,10,1383713133,0.06401062,-0.097229,-0.5971832,15.71909,-48.1041,-23.18194,190.5796,203.6409,15,0.06917295,0.07567665,0.2842131,-0.1767387,-0.02483779,0.225676,0.05942414,-0.1085959,0.3128802,0.1980641,0.1624707,0.3258744,5,0
2013-11-05 23:45:33.709,191,19.1,40.68805,-73.95111,13.99631,11.5,171.8039,8,10,1383713133,-0.1352692,-0.07119751,-0.7311859,15.82385,-49.39194,-21.52235,190.5058,203.5671,15,-0.09989038,0.3869019,0.05252127,-0.1637417,-0.0432789,0.2436218,0.1090277,-0.0169895,-0.02820059,-0.1552015,0.13514,0.2193178,5,0
2013-11-05 23:45:33.839,192,19.2,40.68805,-73.95111,13.99631,11.5,171.8039,8,10,1383713133,-0.2386627,-0.2647858,-1.686691,17.3256,-50.54053,-21.01429,189.0878,202.149,15,-0.2408883,0.9068066,-0.1588038,-0.1569697,0.0182851,0.2159872,-0.5085291,1.283565,0.07896065,-0.2771213,-0.03610015,-0.5459657,5,0
2013-11-05 23:45:33.909,193,19.3,40.68805,-73.95111,13.99631,11.5,171.8039,8,10,1383713133,0.06718445,-0.2931824,-0.7245941,17.98917,-51.06265,-20.98042,191.4213,204.4826,15,-0.7521939,1.680534,0.02679992,-0.1593955,-0.01928358,0.2433589,-0.851395,0.9398495,0.4702798,0.3557351,-0.116641,0.2368941,5,0
2013-11-05 23:45:34.009,194,19.4,40.68805,-73.95111,13.99631,11.5,171.8039,8,10,1383713133,0.1791382,-0.2855225,-0.689743,18.37333,-51.58475,-20.13367,190.4391,203.5004,15,0.2503054,0.1728732,-0.1045448,-0.1763134,-0.002906931,0.2683607,0.8120311,-0.5891629,-0.09324493,0.211299,0.01766887,0.03620901,5,0
2013-11-05 23:45:34.139,195,19.5,40.68805,-73.95111,13.99631,11.5,171.8039,8,10,1383713133,0.2741547,-0.1849518,-0.9019165,18.05902,-49.04379,-18.06767,189.5573,202.6186,15,-0.7328631,1.702027,0.315078,-0.1804038,0.03395605,0.239067,-1.215214,1.38719,0.2250967,0.2374628,0.07247432,0.2426668,5,0
